{"success":true,"data":{"@xsi:type":"pegasus.component.common.parameter.atm.bean.AtmSearchReply","atmList":[{"status":"ENABLED","sequence":"1","atmId":531,"type":"BRANCH","name":"NADLAC","address":"Str. Independentei nr. 47, Bloc Consiliu, ap 26, parter, Arad, Nadlac, 315500","coordinates":{"latitude":46.169574,"longitude":20.751489},"openingHours":[{"hourId":190010,"openingHoursId":"WEEKDAY","timeRange":"09:00 - 17:00"}],"phoneNumbers":[{"phoneId":45,"phoneNumber":"0257\/474.175","phoneType":"P"},{"phoneId":46,"phoneNumber":"0257\/474.110","phoneType":"P"}]},{"status":"ENABLED","sequence":"1","atmId":140,"type":"ATM","name":"Carrefour Express","address":"str Republicii 17,, Sannicolau Mare, jud Timis, Timis, Sannicolau Mare","coordinates":{"latitude":46.071816,"longitude":20.629224},"services":[{"serviceId":3},{"serviceId":4},{"serviceId":2},{"serviceId":1},{"serviceId":5}]},{"status":"ENABLED","sequence":"1","atmId":901,"type":"BRANCH","name":"SANNICOLAU MARE","address":"Str. Timisorii nr. 2A, Timis, Sannicolau Mare, 305600","coordinates":{"latitude":46.058665,"longitude":20.642113},"openingHours":[{"hourId":3690010,"openingHoursId":"WEEKDAY","timeRange":"09:00 - 17:00"}],"phoneNumbers":[{"phoneId":981,"phoneNumber":"0256\/370.869","phoneType":"P"}]},{"status":"ENABLED","sequence":"1","atmId":577,"type":"BRANCH","name":"SALONTA","address":"Str. Republicii nr.19, Bihor, Salonta, 415500","coordinates":{"latitude":46.802777,"longitude":21.656306},"openingHours":[{"hourId":620010,"openingHoursId":"WEEKDAY","timeRange":"09:00 - 17:00"}],"phoneNumbers":[{"phoneId":161,"phoneNumber":"0259\/373.249","phoneType":"P"}]},{"status":"ENABLED","sequence":"1","atmId":1140,"type":"BRANCH","name":"PECICA","address":"Nr. 1470, bloc PETROL, ap. 5, Arad, Pecica, 317235","coordinates":{"latitude":46.161219,"longitude":21.065351},"openingHours":[{"hourId":6030010,"openingHoursId":"WEEKDAY","timeRange":"09:00 - 17:00"}],"phoneNumbers":[{"phoneId":1547,"phoneNumber":"0257\/468.884","phoneType":"P"}]},{"status":"ENABLED","sequence":"1","atmId":533,"type":"BRANCH","name":"CURTICI","address":"Str. Primariei nr. 58, colt cu str. Revolutiei nr. 54, ap. 1, corp A, parter, Arad, Curtici, 315200","coordinates":{"latitude":46.344422,"longitude":21.307444},"openingHours":[{"hourId":210010,"openingHoursId":"WEEKDAY","timeRange":"09:00 - 17:00"}],"phoneNumbers":[{"phoneId":49,"phoneNumber":"0257\/465.815","phoneType":"P"},{"phoneId":50,"phoneNumber":"0257\/465.805","phoneType":"P"}]},{"status":"ENABLED","sequence":"1","atmId":1276,"type":"BRANCH","name":"LOVRIN","address":"Nr. 206, Timis, com Lovrin, 307250","coordinates":{"latitude":45.968337,"longitude":20.769063},"openingHours":[{"hourId":9580010,"openingHoursId":"FRIDAY","timeRange":"09:00 - 17:00"},{"hourId":8580010,"openingHoursId":"MONDAY","timeRange":"09:00 - 17:00"},{"hourId":9060010,"openingHoursId":"WEDNESDAY","timeRange":"09:00 - 17:00"}],"phoneNumbers":[{"phoneId":1869,"phoneNumber":"0256\/381.033","phoneType":"P"}]},{"status":"ENABLED","sequence":"1","atmId":522,"type":"BRANCH","name":"CHISINEU CRIS","address":"Str. Infratirii nr. 81 - 83,  bl. E-1, ap. 17, parter, Arad, Chisineu Cris, 315100","coordinates":{"latitude":46.522331,"longitude":21.515082},"openingHours":[{"hourId":100010,"openingHoursId":"WEEKDAY","timeRange":"09:00 - 17:00"}],"phoneNumbers":[{"phoneId":26,"phoneNumber":"0257\/350.771","phoneType":"P"},{"phoneId":27,"phoneNumber":"0257\/350.797","phoneType":"P"}]},{"status":"ENABLED","sequence":"1","atmId":357,"type":"ATM","name":"Real Hypermaket Oradea 2","address":"DN 1 9 \/ E671 - iesirea spre Satu Mare, Bihor, Oradea","coordinates":{"latitude":47.112108,"longitude":21.892684},"services":[{"serviceId":5},{"serviceId":4},{"serviceId":1},{"serviceId":2},{"serviceId":3}]},{"status":"ENABLED","sequence":"1","atmId":25,"type":"ATM","name":"SC Celestica SA","address":"sos Borsului nr 88, Bihor, Bors","coordinates":{"latitude":47.084321,"longitude":21.884865},"services":[{"serviceId":2},{"serviceId":3},{"serviceId":1},{"serviceId":4},{"serviceId":5}]}]},"header":{"sessionTimeout":600}}
